City_ID,City,Country,Max Temp,Current Description,Lat,Lng,Hotel Name
12,Tecoanapa,MX,82.65,scattered clouds,16.5167,-98.75,
19,Port Alfred,ZA,71.01,clear sky,-33.5906,26.891,
20,Avarua,CK,80.6,broken clouds,-21.2078,-159.775,
22,Kahului,US,73.4,few clouds,20.8947,-156.47,
25,Hilo,US,72.0,light rain,19.7297,-155.09,
26,Rikitea,PF,78.84,few clouds,-23.1203,-134.9692,
27,East London,ZA,75.42,few clouds,-33.0153,27.9116,
28,Padang,ID,77.25,overcast clouds,-0.9492,100.3543,
30,Faanui,PF,81.21,overcast clouds,-16.4833,-151.75,
37,Saint-Georges,GD,84.2,scattered clouds,12.0564,-61.7485,
39,Kapaa,US,75.0,scattered clouds,22.0752,-159.319,
40,Tapes,BR,79.27,overcast clouds,-30.6733,-51.3958,
41,Belmonte,BR,82.4,broken clouds,-15.8631,-38.8828,
44,Cabo San Lucas,MX,78.01,overcast clouds,22.8909,-109.9124,
45,Arraial Do Cabo,BR,86.0,scattered clouds,-22.9661,-42.0278,
52,Puerto Ayora,EC,86.0,clear sky,-0.7393,-90.3518,
55,Sao Filipe,CV,73.63,clear sky,14.8961,-24.4956,
56,Port Moresby,PG,73.4,overcast clouds,-9.4431,147.1797,
59,Vaini,TO,75.2,light rain,-21.2,-175.2,
64,Grand Gaube,MU,81.0,broken clouds,-20.0064,57.6608,
65,Bairiki,KI,80.6,broken clouds,1.3292,172.9752,
68,Port-Gentil,GA,82.4,broken clouds,-0.7193,8.7815,
70,Benjamin Hill,MX,77.0,clear sky,30.1667,-111.1,
71,Taoudenni,ML,72.84,clear sky,22.6783,-3.9836,
74,Tamandare,BR,80.33,scattered clouds,-8.7597,-35.1047,
76,Bonthe,SL,79.34,clear sky,7.5264,-12.505,
80,Rio Grande,BR,82.4,broken clouds,-32.035,-52.0986,
83,Ewa Beach,US,75.2,broken clouds,21.3156,-158.0072,
84,Bowen,AU,75.2,scattered clouds,-20.0167,148.2333,
87,Sabang,ID,81.77,broken clouds,5.8933,95.3214,
88,La Romana,DO,78.8,broken clouds,18.4273,-68.9728,
89,Eirunepe,BR,80.83,heavy intensity rain,-6.6603,-69.8736,
91,Bengkulu,ID,75.76,overcast clouds,-3.8004,102.2655,
92,Ancud,CL,71.6,clear sky,-41.8697,-73.8203,
93,Poum,NC,78.94,overcast clouds,-20.2333,164.0167,
94,Guarapari,BR,84.2,few clouds,-20.6667,-40.4975,
97,Bambous Virieux,MU,81.0,broken clouds,-20.3428,57.7575,
100,Isangel,VU,75.2,overcast clouds,-19.55,169.2667,
101,Moroni,KM,80.91,few clouds,-11.7022,43.2551,
104,Lodja,CD,71.17,overcast clouds,-3.4833,23.4333,
111,Palu,ID,74.46,overcast clouds,-0.8917,119.8707,
115,Hithadhoo,MV,82.6,overcast clouds,-0.6,73.0833,
119,Castro,BR,72.79,overcast clouds,-24.7911,-50.0119,
126,Newcastle,AU,72.0,broken clouds,-32.9272,151.7765,
129,Villarrica,PY,75.06,overcast clouds,-25.75,-56.4333,
130,Tautira,PF,84.2,scattered clouds,-17.7333,-149.15,
133,Georgetown,MY,78.8,few clouds,5.4112,100.3354,
139,Kununurra,AU,78.8,broken clouds,-15.7667,128.7333,
142,Charagua,BO,80.6,broken clouds,-19.8,-63.2167,
147,Makakilo City,US,75.2,broken clouds,21.3469,-158.0858,
148,Nanakuli,US,75.2,broken clouds,21.3906,-158.1547,
151,Pueblo Nuevo,MX,77.09,clear sky,23.3833,-105.3833,
152,Sriperumbudur,IN,77.0,mist,12.9689,79.9489,
156,Luanda,AO,78.76,broken clouds,-8.8368,13.2343,
160,Ovalle,CL,84.76,clear sky,-30.5983,-71.2003,
162,Gamba,GA,78.78,light rain,-2.65,10.0,
163,Lago Da Pedra,BR,81.88,overcast clouds,-4.3333,-45.1667,
167,Lorengau,PG,82.45,overcast clouds,-2.0226,147.2712,
174,Nuevitas,CU,86.0,scattered clouds,21.5453,-77.2644,
177,Kavieng,PG,83.12,light rain,-2.5744,150.7967,
178,Mamallapuram,IN,77.0,mist,12.6264,80.1722,
182,Carnarvon,AU,86.0,overcast clouds,-24.8667,113.6333,
184,Lufilufi,WS,84.2,overcast clouds,-13.8745,-171.5986,
189,Catia La Mar,VE,80.6,scattered clouds,10.6038,-67.0303,
197,Butaritari,KI,80.53,light rain,3.0707,172.7902,
201,Ahuimanu,US,75.2,broken clouds,21.4447,-157.8378,
202,Atar,MR,73.74,overcast clouds,20.5169,-13.0499,
203,Caravelas,BR,80.91,clear sky,-17.7125,-39.2481,
205,Namatanai,PG,79.54,overcast clouds,-3.6667,152.4333,
208,Banda Aceh,ID,77.36,broken clouds,5.5577,95.3222,
213,Manaure,CO,87.78,broken clouds,11.7751,-72.4445,
219,Bafata,GW,82.67,few clouds,12.1667,-14.75,
221,Vila Velha,BR,84.2,few clouds,-20.3297,-40.2925,
223,Bima,ID,76.1,overcast clouds,-8.4667,118.7167,
228,Santarem,BR,84.2,broken clouds,-2.4431,-54.7083,
233,Atuona,PF,78.33,overcast clouds,-9.8,-139.0333,
234,Manado,ID,75.2,scattered clouds,1.4869999999999999,124.8455,
235,Tiruchchendur,IN,78.31,overcast clouds,8.4833,78.1167,
238,Cayenne,GF,84.2,broken clouds,4.9333,-52.3333,
242,Buala,SB,81.7,overcast clouds,-8.145,159.5921,
246,Touros,BR,84.2,few clouds,-5.1989,-35.4608,
248,Mollendo,PE,73.92,clear sky,-17.0231,-72.0147,
250,Kruisfontein,ZA,73.99,scattered clouds,-34.0033,24.7314,
251,Carutapera,BR,83.26,clear sky,-1.195,-46.02,
262,Cairns,AU,75.2,overcast clouds,-16.9167,145.7667,
263,Labuhan,ID,77.7,overcast clouds,-6.8844,112.2051,
264,Eyl,SO,72.99,clear sky,7.9803,49.8164,
267,Alice Springs,AU,84.0,broken clouds,-23.7,133.8833,
268,Maravilha,BR,73.99,overcast clouds,-26.7608,-53.1725,
269,Alta Floresta,BR,87.8,moderate rain,-9.8756,-56.0861,
274,Lahat,ID,72.59,overcast clouds,-3.8,103.5333,
276,Sechura,PE,84.65,clear sky,-5.5569,-80.8222,
280,Tucupita,VE,82.54,broken clouds,9.0622,-62.051,
284,Sinnamary,GF,79.47,scattered clouds,5.3833,-52.95,
287,Grand Baie,MU,81.0,broken clouds,-20.0182,57.5802,
292,Kieta,PG,81.18,overcast clouds,-6.2167,155.6333,
301,Santa Rosa,PH,75.2,scattered clouds,14.3122,121.1114,
306,Inhambane,MZ,80.33,clear sky,-23.865,35.3833,
309,Road Town,VG,80.6,broken clouds,18.4167,-64.6167,
311,Pisco,PE,80.6,clear sky,-13.7,-76.2167,
312,Chake Chake,TZ,78.75,overcast clouds,-5.2459,39.7666,
313,Paka,MY,78.8,overcast clouds,4.6374,103.4368,
314,Kisangani,CD,74.5,overcast clouds,0.5167,25.2,
315,Souillac,MU,80.6,broken clouds,-20.5167,57.5167,
320,Ternate,ID,78.46,overcast clouds,0.8,127.4,
327,Lampazos De Naranjo,MX,73.17,clear sky,27.0167,-100.5167,
328,Mitsamiouli,KM,82.63,scattered clouds,-11.3847,43.2844,
331,Panguna,PG,70.75,overcast clouds,-6.3164,155.4848,
332,Saint-Philippe,RE,82.4,light rain,-21.3585,55.7679,
334,Bontang,ID,76.6,overcast clouds,0.1333,117.5,
335,Chaparral,CO,86.7,broken clouds,3.7232,-75.4832,
336,Sao Miguel Do Araguaia,BR,86.77,heavy intensity rain,-13.275,-50.1628,
337,Gorontalo,ID,75.63,overcast clouds,0.5412,123.0595,
339,Tigre,AR,71.01,light rain,-34.426,-58.5796,
343,Tevaitoa,PF,81.27,overcast clouds,-16.7833,-151.5,
344,Salalah,OM,71.6,clear sky,17.0151,54.0924,
345,Luganville,VU,78.78,overcast clouds,-15.5333,167.1667,
346,Bangui,CF,86.0,smoke,4.3612,18.555,
351,Ambilobe,MG,74.84,clear sky,-13.2,49.05,
352,Itabera,BR,73.85,overcast clouds,-23.8619,-49.1372,
353,Nacimiento,CL,75.2,light rain,-37.5,-72.6667,
356,Kaputa,ZM,71.28,light rain,-8.4689,29.6619,
357,Rawson,AR,80.01,broken clouds,-43.3002,-65.1023,
358,Thinadhoo,MV,81.99,overcast clouds,0.5333,72.9333,
359,Carauari,BR,83.98,scattered clouds,-4.8828,-66.8958,
360,Itacare,BR,84.2,scattered clouds,-14.2775,-38.9967,
361,Townsville,AU,75.2,overcast clouds,-19.25,146.8,
364,Quatre Cocos,MU,81.0,broken clouds,-20.2078,57.7625,
369,Honiara,SB,80.24,overcast clouds,-9.4333,159.95,
370,Lookan,PH,80.56,overcast clouds,5.037,120.1027,
373,Mlonggo,ID,78.87,light rain,-6.5333,110.7,
375,Codajas,BR,88.0,scattered clouds,-3.8367,-62.0569,
382,Omboue,GA,78.4,overcast clouds,-1.5746,9.2618,
383,Katherine,AU,77.0,scattered clouds,-14.4667,132.2667,
385,Yulara,AU,86.0,overcast clouds,-25.2406,130.9889,
390,Tabou,CI,78.64,scattered clouds,4.423,-7.3528,
395,Auki,SB,80.56,overcast clouds,-8.7676,160.7034,
399,Marsh Harbour,BS,72.09,overcast clouds,26.5412,-77.0636,
400,San Patricio,US,82.4,clear sky,28.017,-97.5169,
403,Cidreira,BR,78.26,overcast clouds,-30.1811,-50.2056,
404,Adrar,MR,70.34,clear sky,20.5022,-10.0711,
405,Purranque,CL,78.8,few clouds,-40.9167,-73.1667,
407,Ixtapa,MX,75.2,clear sky,20.7,-105.2,
408,Bitung,ID,75.2,scattered clouds,1.4451,125.1824,
411,Karratha,AU,86.59,overcast clouds,-20.7377,116.8463,
412,Vao,NC,76.12,overcast clouds,-22.6667,167.4833,
415,Coihaique,CL,77.0,few clouds,-45.5752,-72.0662,
416,Nanyamba,TZ,72.23,overcast clouds,-10.6833,39.8333,
417,Singkang,MY,75.2,few clouds,2.1006,102.7994,
419,Mahebourg,MU,80.6,broken clouds,-20.4081,57.7,
420,Camana,PE,74.68,clear sky,-16.6228,-72.7111,
421,Copiapo,CL,71.6,few clouds,-27.3667,-70.3333,
422,Bandundu,CD,75.42,light rain,-3.3167,17.3667,
423,Beira,MZ,80.6,clear sky,-19.8436,34.8389,
424,Broken Hill,AU,73.4,broken clouds,-31.95,141.4333,
428,Beruwala,LK,74.75,scattered clouds,6.4788,79.9828,
433,Cockburn Town,TC,78.8,scattered clouds,21.4612,-71.1419,
436,Sao Joao Da Barra,BR,86.0,clear sky,-21.6403,-41.0511,
437,Malinalco,MX,82.4,clear sky,18.95,-99.5,
447,Dingle,PH,72.27,overcast clouds,10.9995,122.6711,
449,Natal,BR,86.0,scattered clouds,-5.795,-35.2094,
452,Esmeralda,CU,86.0,scattered clouds,21.8525,-78.1169,
454,Aquiraz,BR,84.2,few clouds,-3.9014,-38.3911,
462,Port Hedland,AU,77.0,light rain,-20.3167,118.5667,
464,Anori,BR,87.96,few clouds,-3.7728,-61.6442,
466,Fenoarivo Atsinanana,MG,79.57,light rain,-17.3667,49.4167,
467,Kudahuvadhoo,MV,81.25,clear sky,2.6708,72.8944,
468,Sumbe,AO,77.38,clear sky,-11.2061,13.8437,
470,Manta,EC,80.6,light rain,-0.95,-80.7333,
475,Itarema,BR,83.17,clear sky,-2.9248,-39.9167,
478,Buchanan,LR,80.6,broken clouds,5.8808,-10.0467,
479,Vanimo,PG,77.4,heavy intensity rain,-2.6741,141.3028,
480,Monrovia,LR,80.6,broken clouds,6.3005,-10.7969,
481,San Andres,CO,84.2,few clouds,12.5847,-81.7006,
485,Cornelio Procopio,BR,78.8,scattered clouds,-23.1811,-50.6467,
492,Guiratinga,BR,87.49,broken clouds,-16.3494,-53.7583,
494,Acapulco,MX,84.2,clear sky,16.8634,-99.8901,
495,Camopi,GF,76.37,overcast clouds,3.1655,-52.3158,
497,Sola,VU,78.4,overcast clouds,-13.8833,167.55,
498,Cedral,MX,76.39,clear sky,23.8,-100.7333,
499,Emilio Carranza,MX,76.1,overcast clouds,19.9711,-96.6114,
503,Sao Raimundo Das Mangabeiras,BR,88.88,broken clouds,-7.0219,-45.4811,
508,Merauke,ID,79.41,overcast clouds,-8.4667,140.3333,
511,Sayula,MX,84.2,clear sky,19.8667,-103.6167,
513,Comodoro Rivadavia,AR,75.2,scattered clouds,-45.8667,-67.5,
514,Chicama,PE,71.6,clear sky,-7.8447,-79.1469,
516,Pombas,CV,73.4,scattered clouds,17.1503,-25.0201,
518,Pitimbu,BR,86.0,scattered clouds,-7.4706,-34.8086,
522,Beloha,MG,77.95,scattered clouds,-25.1667,45.05,
525,Urucui,BR,88.88,broken clouds,-7.2294,-44.5561,
528,Noumea,NC,78.01,overcast clouds,-22.2763,166.4572,
533,Santa Cruz Del Sur,CU,82.83,moderate rain,20.7147,-77.9956,
535,Miri,MY,78.8,scattered clouds,4.4148,114.0089,
536,Jacqueville,CI,82.4,few clouds,5.2052,-4.4146,
537,Manavalakurichi,IN,84.2,haze,8.1333,77.3,
539,Aripuana,BR,89.69,light rain,-9.1667,-60.6333,
540,Bandar,ID,71.29,overcast clouds,2.05,99.75,
543,Capao Bonito,BR,71.44,overcast clouds,-24.0058,-48.3494,
546,Anloga,GH,84.2,few clouds,5.7947,0.8973,
547,Axim,GH,79.79,few clouds,4.8699,-2.2405,
549,Saint-Pierre,RE,82.4,clear sky,-21.3393,55.4781,
552,Port Keats,AU,76.14,overcast clouds,-14.25,129.55,
553,Mount Isa,AU,80.6,overcast clouds,-20.7333,139.5,
559,Danielskuil,ZA,71.69,clear sky,-28.1887,23.5395,
563,Graaff-Reinet,ZA,77.0,clear sky,-32.2522,24.5308,
564,Moindou,NC,71.6,overcast clouds,-21.6924,165.67700000000002,
566,Biak,ID,76.42,overcast clouds,-0.9131,122.8766,
567,Pedernales,DO,83.26,scattered clouds,18.0384,-71.744,
568,Puerto Escondido,MX,86.0,few clouds,15.85,-97.0667,
569,Hualmay,PE,77.2,broken clouds,-11.0964,-77.6139,
570,Bocas Del Toro,PA,75.0,scattered clouds,9.3333,-82.25,
572,Kimbe,PG,77.38,overcast clouds,-5.5502,150.1429,
573,Tubuala,PA,89.6,scattered clouds,9.5167,-79.0333,
574,Abreu E Lima,BR,80.6,scattered clouds,-7.9117,-34.9028,
575,Upington,ZA,80.6,clear sky,-28.4478,21.2561,
579,Chibuto,MZ,80.15,overcast clouds,-24.6867,33.5306,
583,Palmares Do Sul,BR,81.16,moderate rain,-30.2578,-50.5097,
584,Lafiagi,NG,87.1,broken clouds,8.8667,5.4167,
589,Ocampo,MX,71.67,clear sky,21.65,-101.5,
591,Kigoma,TZ,74.84,light rain,-4.8769,29.6267,
592,Meulaboh,ID,75.92,broken clouds,4.1363,96.1285,
597,Chimore,BO,81.18,overcast clouds,-16.9833,-65.1333,
600,Tchaourou,BJ,83.82,overcast clouds,8.8865,2.5975,
604,Trat,TH,70.56,clear sky,12.5,102.5,
605,Srandakan,ID,77.07,overcast clouds,-7.9386,110.2506,
607,Salvador,SV,89.6,clear sky,13.8333,-88.9167,
613,Pochutla,MX,90.0,clear sky,15.7432,-96.4661,
615,Maturin,VE,78.57,broken clouds,9.75,-63.1767,
616,Kollam,IN,84.2,haze,8.8833,76.6,
617,Kupang,ID,79.07,moderate rain,-10.1667,123.5833,
619,Mandera,KE,83.53,broken clouds,3.9366,41.867,
621,Altamira,BR,86.0,broken clouds,-3.2033,-52.2064,
629,Piacabucu,BR,80.92,overcast clouds,-10.4056,-36.4344,
635,Anuradhapura,LK,71.85,few clouds,8.3565,80.4173,
636,Pangkalanbuun,ID,74.26,light rain,-2.6833,111.6167,
638,Harlingen,US,79.0,overcast clouds,26.1906,-97.6961,
639,Hambantota,LK,77.13,broken clouds,6.1241,81.1185,
642,Sri Aman,MY,75.2,moderate rain,1.2376,111.4621,
643,Corrente,BR,80.04,overcast clouds,-3.7367,-43.3394,
644,Nanga Eboko,CM,76.86,broken clouds,4.6833,12.3667,
647,Qui Nhon,VN,70.12,overcast clouds,13.7667,109.2333,
648,Mahajanga,MG,80.6,light rain,-15.7167,46.3167,
654,Samarai,PG,81.68,clear sky,-10.6167,150.6667,
662,Ipixuna,BR,80.6,broken clouds,-1.7625,-48.8043,
663,Antofagasta,CL,75.99,few clouds,-23.65,-70.4,
665,Pita,GN,77.76,clear sky,10.8333,-12.5833,
666,Vallenar,CL,85.46,clear sky,-28.5708,-70.7581,
671,Nieuw Amsterdam,SR,84.2,scattered clouds,5.8833,-55.0833,
673,Nabire,ID,76.39,overcast clouds,-3.3667,135.4833,
675,Langsa,ID,72.91,overcast clouds,4.4683,97.9683,
679,Maiduguri,NG,73.11,clear sky,11.8464,13.1603,
681,Sassandra,CI,78.03,overcast clouds,4.95,-6.0833,
686,Dakar,SN,75.2,clear sky,14.6937,-17.4441,
687,Kibala,TD,78.8,clear sky,9.1104,18.3463,
689,Kavaratti,IN,81.41,clear sky,10.5669,72.642,
692,Bo Phloi,TH,72.91,clear sky,14.3236,99.5161,
698,Katobu,ID,75.25,overcast clouds,-4.9408,122.5276,
700,Alofi,NU,77.0,light rain,-19.0595,-169.9187,
701,Mogadishu,SO,76.51,clear sky,2.0371,45.3438,
702,Kasongo-Lunda,CD,72.1,light rain,-6.4667,16.8167,
705,Alyangula,AU,80.6,scattered clouds,-13.8483,136.4192,
707,Banyo,CM,70.23,clear sky,6.75,11.8167,
709,Probolinggo,ID,77.0,haze,-7.7543,113.2159,
