City_ID,City,Country,Lat,Lng,Max Temp,Humidity,Cloudiness,Wind Speed,Current Description
0,Sao Joao Da Barra,BR,-21.6403,-41.0511,82.4,65,0,23.02,clear sky
1,Champerico,GT,14.3,-91.9167,91.4,52,40,11.5,scattered clouds
2,Albany,US,42.6001,-73.9662,17.01,52,100,2.53,overcast clouds
3,Hobart,AU,-42.8794,147.3294,69.01,68,75,6.91,broken clouds
4,Aykhal,RU,66.0,111.5,-41.69,78,100,9.8,overcast clouds
5,Mataura,NZ,-46.1927,168.8643,71.24,45,56,2.57,broken clouds
6,Canyon Lake,US,29.8752,-98.2625,66.99,33,0,11.01,clear sky
7,Lokoja,NG,7.8024,6.743,81.82,22,38,3.09,scattered clouds
8,Road Town,VG,18.4167,-64.6167,78.8,78,40,10.36,scattered clouds
9,Nikolskoye,RU,59.7035,30.7861,26.6,86,90,6.71,snow
10,Souillac,MU,-20.5167,57.5167,80.6,78,40,13.8,scattered clouds
11,Cape Town,ZA,-33.9258,18.4232,66.0,82,75,18.41,broken clouds
12,New Norfolk,AU,-42.7826,147.0587,70.0,51,42,1.99,scattered clouds
13,Ushuaia,AR,-54.8,-68.3,53.6,62,75,8.05,broken clouds
14,Florianopolis,BR,-27.6146,-48.5012,78.8,73,40,5.75,scattered clouds
15,Luderitz,NA,-26.6481,15.1594,66.22,73,1,19.53,clear sky
16,Avarua,CK,-21.2078,-159.775,77.0,94,75,10.36,heavy intensity drizzle
17,Alpinopolis,BR,-20.8636,-46.3881,70.34,83,97,0.72,overcast clouds
18,Dakar,SN,14.6937,-17.4441,75.2,46,0,11.5,clear sky
19,Cherskiy,RU,68.75,161.3,-17.28,82,96,6.96,overcast clouds
20,Qaanaaq,GL,77.484,-69.3632,-4.49,88,100,1.36,overcast clouds
21,Tuktoyaktuk,CA,69.4541,-133.0374,-23.8,69,75,2.3,broken clouds
22,Kruisfontein,ZA,-34.0033,24.7314,68.0,81,71,3.0,light rain
23,Guerrero Negro,MX,27.9769,-114.0611,68.72,35,89,8.86,overcast clouds
24,Hithadhoo,MV,-0.6,73.0833,82.2,77,75,13.33,broken clouds
25,Veracruz,MX,19.3333,-96.6667,79.0,73,40,13.8,scattered clouds
26,Iqaluit,CA,63.7506,-68.5145,-2.2,78,90,3.44,light snow
27,Arraial Do Cabo,BR,-22.9661,-42.0278,78.8,73,40,14.97,scattered clouds
28,Rikitea,PF,-23.1203,-134.9692,79.45,62,6,7.72,clear sky
29,Dzaoudzi,YT,-12.7887,45.2699,82.4,78,75,4.61,broken clouds
30,Noyabrsk,RU,63.1994,75.4507,-3.01,93,98,9.71,overcast clouds
31,Vaini,TO,-21.2,-175.2,78.8,94,90,8.05,moderate rain
32,Husavik,IS,66.0449,-17.3389,-4.0,84,0,3.44,clear sky
33,Port Elizabeth,ZA,-33.918,25.5701,71.6,73,40,21.85,light rain
34,Nizwa,OM,22.9333,57.5333,56.97,59,0,1.34,clear sky
35,Saint-Francois,FR,46.4154,3.9054,48.2,93,100,3.44,overcast clouds
36,Fortuna,US,40.5982,-124.1573,54.0,93,75,19.57,light rain
37,Artyom,AZ,40.4723,50.333,44.6,93,75,13.8,broken clouds
38,Ginir,ET,7.1333,40.7,55.0,40,1,4.25,clear sky
39,Busselton,AU,-33.65,115.3333,64.0,81,0,7.0,clear sky
40,Nara,JP,34.6851,135.8049,37.99,93,75,1.14,broken clouds
41,Peace River,CA,56.2501,-117.286,10.4,79,90,11.5,overcast clouds
42,Sechura,PE,-5.5569,-80.8222,81.64,55,7,17.27,clear sky
43,Port Lincoln,AU,-34.7333,135.8667,63.79,69,98,17.0,overcast clouds
44,Talnakh,RU,69.4865,88.3972,-19.34,76,94,9.86,overcast clouds
45,Butaritari,KI,3.0707,172.7902,80.65,82,65,12.68,light rain
46,Lorengau,PG,-2.0226,147.2712,83.73,78,89,8.37,overcast clouds
47,Bharatpur,IN,27.2167,77.4833,50.38,47,0,1.01,clear sky
48,Haines Junction,CA,60.7522,-137.5108,1.4,78,92,5.75,overcast clouds
49,Caohai,CN,26.8661,104.2841,37.62,93,94,1.43,overcast clouds
50,Punta Arenas,CL,-53.15,-70.9167,53.6,66,0,20.71,clear sky
51,Thompson,CA,55.7435,-97.8558,14.0,85,75,1.23,broken clouds
52,Castro,BR,-24.7911,-50.0119,65.7,94,99,5.5,overcast clouds
53,Tura,IN,25.5198,90.2201,51.91,52,0,2.39,clear sky
54,San Jeronimo,PE,-11.9472,-75.2829,56.97,64,71,5.7,broken clouds
55,Nanortalik,GL,60.1432,-45.2371,32.13,92,100,6.98,overcast clouds
56,Faanui,PF,-16.4833,-151.75,81.54,75,78,10.36,light rain
57,Kamaishi,JP,39.2667,141.8833,30.27,88,80,3.76,broken clouds
58,Krasnoselkup,RU,65.7,82.4667,-11.54,89,100,12.86,light snow
59,Barrow,US,71.2906,-156.7887,-20.2,76,40,10.36,haze
60,Beringovskiy,RU,63.05,179.3167,12.51,96,100,28.68,snow
61,Franca,BR,-20.5386,-47.4008,69.08,86,98,2.77,overcast clouds
62,San Ignacio,BZ,17.1561,-89.0714,86.0,66,20,6.91,few clouds
63,Bluff,NZ,-46.6,168.3333,61.29,68,63,3.69,broken clouds
64,Yarim,YE,14.298,44.3779,48.45,44,0,5.1,clear sky
65,Hermanus,ZA,-34.4187,19.2345,63.0,83,91,1.99,overcast clouds
66,Hasaki,JP,35.7333,140.8333,35.6,60,75,6.91,broken clouds
67,Tiksi,RU,71.6872,128.8694,-27.15,86,100,6.73,overcast clouds
68,Aksarka,RU,66.5606,67.7975,-16.56,88,96,7.27,overcast clouds
69,Hualmay,PE,-11.0964,-77.6139,73.15,71,73,12.44,broken clouds
70,Victoria,HK,22.2855,114.1577,64.99,80,37,1.01,scattered clouds
71,Itarema,BR,-2.9248,-39.9167,80.24,82,12,15.59,few clouds
72,Katastarion,GR,37.8333,20.7667,59.0,94,90,13.8,overcast clouds
73,Coleraine,GB,55.1333,-6.6667,37.4,87,75,9.22,broken clouds
74,Yellowknife,CA,62.456,-114.3525,-4.0,77,75,4.61,broken clouds
75,Bonavista,CA,48.6499,-53.1147,30.99,93,100,6.91,light snow
76,De-Kastri,RU,51.4667,140.7833,-15.27,82,0,3.85,clear sky
77,Ranong,TH,9.9658,98.6348,71.92,86,40,4.14,scattered clouds
78,Chuy,UY,-33.6971,-53.4616,68.94,91,100,15.79,overcast clouds
79,Byron Bay,AU,-28.65,153.6167,78.8,61,75,12.66,broken clouds
80,Aranjuez,ES,40.0311,-3.6025,55.99,80,85,23.29,overcast clouds
81,Port Alfred,ZA,-33.5906,26.891,72.0,85,6,7.0,clear sky
82,Lebu,CL,-37.6167,-73.65,58.55,83,3,15.61,clear sky
83,Roma,US,43.2128,-75.4557,19.4,53,1,6.91,clear sky
84,Sitka,US,57.0531,-135.33,41.0,52,40,5.75,scattered clouds
85,Dalby,AU,-27.1833,151.2667,73.99,71,23,1.99,few clouds
86,Mar Del Plata,AR,-38.0023,-57.5575,64.99,68,75,12.66,broken clouds
87,Upernavik,GL,72.7868,-56.1549,2.43,93,100,8.23,light snow
88,Sao Filipe,CV,14.8961,-24.4956,73.17,70,0,5.77,clear sky
89,Srednekolymsk,RU,67.45,153.6833,-25.08,86,100,5.32,overcast clouds
90,Batagay,RU,67.6333,134.6333,-50.21,76,87,0.87,overcast clouds
91,Sol-Iletsk,RU,51.1631,54.9918,19.62,97,79,12.48,broken clouds
92,Yangshe,CN,31.8899,120.6052,46.99,99,100,8.01,light rain
93,Port Hardy,CA,50.6996,-127.4199,42.8,93,75,2.3,light rain
94,Buritis,BR,-15.6178,-46.4233,77.32,60,48,2.71,scattered clouds
95,Georgetown,MY,5.4112,100.3354,79.0,83,20,3.44,light rain
96,Mahanje,TZ,-9.9333,35.3333,66.16,97,100,3.78,moderate rain
97,Leningradskiy,RU,69.3833,178.4167,-21.57,86,95,10.18,overcast clouds
98,Riacho De Santana,BR,-13.6092,-42.9389,81.99,41,98,7.16,overcast clouds
99,Ixtapa,MX,20.7,-105.2,75.2,69,1,11.5,clear sky
100,Puerto Ayora,EC,-0.7393,-90.3518,84.2,70,0,13.8,clear sky
101,Hokitika,NZ,-42.7167,170.9667,62.17,63,55,6.73,broken clouds
102,Grindavik,IS,63.8424,-22.4338,32.0,74,75,13.8,broken clouds
103,Maralal,KE,1.0968,36.698,56.23,59,93,5.97,overcast clouds
104,Parry Sound,CA,45.3501,-80.033,24.8,46,42,6.64,scattered clouds
105,Rubiataba,BR,-15.1644,-49.8033,72.79,80,80,0.72,broken clouds
106,Banjar,ID,-8.19,114.9675,80.6,89,40,5.75,scattered clouds
107,Kapaa,US,22.0752,-159.319,78.8,61,1,11.5,clear sky
108,Bukama,CD,-9.2,25.85,70.12,94,100,3.0,overcast clouds
109,Louis Trichardt,ZA,-23.0439,29.9032,69.75,79,71,3.13,broken clouds
110,Christchurch,NZ,-43.5333,172.6333,66.0,77,90,11.5,overcast clouds
111,Poso,ID,-1.3959,120.7524,78.96,72,99,3.33,overcast clouds
112,East London,ZA,-33.0153,27.9116,73.45,71,23,17.34,few clouds
113,Guarapari,BR,-20.6667,-40.4975,80.6,74,40,14.97,scattered clouds
114,Tongren,CN,27.7172,109.1853,47.19,89,94,0.67,overcast clouds
115,Avera,US,33.194,-82.5271,50.0,96,90,4.61,moderate rain
116,Beloha,MG,-25.1667,45.05,75.72,85,0,2.17,clear sky
117,San Patricio,US,28.017,-97.5169,80.6,17,1,16.11,clear sky
118,Cabedelo,BR,-6.9811,-34.8339,80.6,78,20,8.05,few clouds
119,Rio Gallegos,AR,-51.6226,-69.2181,71.6,23,0,20.71,clear sky
120,Severo-Kurilsk,RU,50.6789,156.125,22.62,91,90,40.22,light snow
121,Berberati,CF,4.2612,15.7922,69.44,66,99,1.3,overcast clouds
122,Borogontsy,RU,62.6683,131.1683,-51.47,76,67,3.53,broken clouds
123,Bengkulu,ID,-3.8004,102.2655,74.95,81,91,4.34,overcast clouds
124,Khatanga,RU,71.9667,102.5,-40.05,80,24,7.9,few clouds
125,Lososina,RU,48.9975,140.3106,-7.6,81,50,3.2,scattered clouds
126,Oksfjord,NO,70.2396,22.3479,26.6,86,100,1.14,light snow
127,Saint George,US,37.1041,-113.5841,57.0,43,1,3.91,clear sky
128,Touros,BR,-5.1989,-35.4608,80.6,74,20,9.22,few clouds
129,San Cristobal,VE,7.7669,-72.225,87.8,42,40,4.61,scattered clouds
130,Sungaipenuh,ID,-2.0833,101.3833,63.39,91,93,3.62,overcast clouds
131,Dafeng,CN,23.4517,108.5881,62.28,81,85,4.12,overcast clouds
132,Bambous Virieux,MU,-20.3428,57.7575,80.6,78,40,13.8,scattered clouds
133,Yulara,AU,-25.2406,130.9889,84.2,23,99,12.66,overcast clouds
134,Labuan,MY,5.2767,115.2417,78.8,83,20,4.61,few clouds
135,Jatai,BR,-17.8814,-51.7144,73.35,78,97,3.6,overcast clouds
136,Kahului,US,20.8947,-156.47,78.8,57,20,18.41,few clouds
137,Saint-Philippe,RE,-21.3585,55.7679,80.6,69,20,18.41,light rain
138,Hilo,US,19.7297,-155.09,78.8,57,20,4.61,few clouds
139,Newark,US,40.7357,-74.1724,26.01,63,90,10.36,snow
140,Penarroya-Pueblonuevo,ES,38.3,-5.2667,55.4,94,75,6.91,broken clouds
141,Opuwo,NA,-18.0607,13.84,67.78,54,100,6.22,overcast clouds
142,Auki,SB,-8.7676,160.7034,84.43,75,80,18.39,broken clouds
143,Amot,NO,59.5714,7.9877,14.0,91,96,4.0,overcast clouds
144,Petropavlovsk-Kamchatskiy,RU,53.0452,158.6483,12.2,62,64,2.24,broken clouds
145,Altamira,BR,-3.2033,-52.2064,84.2,79,75,3.44,broken clouds
146,Bhan,PK,26.5583,67.7214,57.78,31,0,5.32,clear sky
147,Kambove,CD,-10.8764,26.5969,63.27,96,100,5.28,overcast clouds
148,Dillon,US,34.4166,-79.3712,55.4,100,90,3.44,mist
149,Senador Jose Porfirio,BR,-2.5908,-51.9542,79.27,80,91,4.14,overcast clouds
150,Lavrentiya,RU,65.5833,-171.0,-5.87,86,100,16.35,overcast clouds
151,Hofn,IS,64.2539,-15.2082,27.18,81,50,7.9,scattered clouds
152,Soe,ID,-9.8607,124.284,68.94,99,100,6.49,overcast clouds
153,Atuona,PF,-9.8,-139.0333,78.98,75,32,16.78,scattered clouds
154,Saldanha,ZA,-33.0117,17.9442,66.18,84,94,12.46,overcast clouds
155,Paamiut,GL,61.994,-49.6678,22.91,90,0,12.68,clear sky
156,Laguna,US,38.421,-121.4238,64.99,39,1,4.61,clear sky
157,Kastrakion,GR,39.7156,21.6181,43.0,91,100,3.0,overcast clouds
158,Hambantota,LK,6.1241,81.1185,76.62,82,41,13.24,scattered clouds
159,Puurmani,EE,58.5738,26.2878,26.01,93,90,10.36,light snow
160,Waipawa,NZ,-41.4122,175.5153,66.99,68,1,12.66,clear sky
161,Belaya Gora,RU,68.5333,146.4167,-31.52,84,100,3.44,overcast clouds
162,Dawson Creek,CA,55.7666,-120.2362,8.6,78,20,2.3,few clouds
163,Novovarshavka,RU,54.1721,74.6946,3.61,92,100,7.49,overcast clouds
164,Alugan,PH,12.2188,125.4808,78.84,83,96,14.36,overcast clouds
165,Eydhafushi,MV,5.1033,73.0708,81.9,72,47,11.83,scattered clouds
166,Golspie,GB,57.9727,-3.978,28.99,93,58,4.25,broken clouds
167,Bundaberg,AU,-24.85,152.35,77.0,73,7,11.5,clear sky
168,Khasan,RU,42.4308,130.6434,19.26,96,79,5.99,broken clouds
169,Ambon,ID,-3.6954,128.1814,77.0,88,40,5.75,scattered clouds
170,Damghan,IR,36.1683,54.348,41.0,61,100,0.63,overcast clouds
171,Peshkopi,AL,41.685,20.4289,50.0,87,75,11.5,broken clouds
172,Dhidhdhoo,MV,6.8833,73.1,82.17,69,23,7.92,few clouds
173,Surazh,RU,53.0175,32.3918,15.76,97,94,9.53,overcast clouds
174,Kaputa,ZM,-8.4689,29.6619,69.96,85,100,3.4,light rain
175,Dikson,RU,73.5069,80.5464,-26.9,79,61,8.81,broken clouds
176,Flinders,AU,-34.5833,150.8552,72.0,83,76,1.01,broken clouds
177,Thinadhoo,MV,0.5333,72.9333,81.59,80,83,12.1,broken clouds
178,Hue,VN,16.4667,107.6,68.0,94,40,3.44,scattered clouds
179,Mildura,AU,-34.2,142.15,69.8,49,99,4.61,overcast clouds
180,Nagornskiy,RU,58.7731,57.5451,23.0,84,100,7.0,overcast clouds
181,Bredasdorp,ZA,-34.5322,20.0403,63.0,83,99,1.99,overcast clouds
182,Blagoyevo,RU,63.3667,47.9167,29.59,98,100,8.12,light snow
183,Xichang,CN,27.8964,102.2634,37.24,79,5,1.1,clear sky
184,Garowe,SO,8.4054,48.4845,62.92,83,0,8.77,clear sky
185,Zhigansk,RU,66.7697,123.3711,-45.38,77,43,1.54,scattered clouds
186,Ostrovnoy,RU,68.0531,39.5131,12.04,94,87,5.17,overcast clouds
187,Raga,SS,8.4596,25.678,67.15,25,0,2.77,clear sky
188,Krikellos,GR,38.95,21.1833,57.2,88,90,16.11,overcast clouds
189,Ukiah,US,39.1502,-123.2078,57.2,54,90,11.5,overcast clouds
190,Belmonte,BR,-15.8631,-38.8828,78.8,73,20,9.22,few clouds
191,Esperance,AU,-33.8667,121.9,59.0,94,31,5.75,scattered clouds
192,Sur,OM,22.5667,59.5289,68.7,56,0,4.03,clear sky
193,Belokurikha,RU,51.9959,84.9896,18.09,85,79,3.36,broken clouds
194,Batticaloa,LK,7.7102,81.6924,77.27,84,2,7.76,clear sky
195,Phalodi,IN,27.1333,72.3667,57.34,28,0,3.02,clear sky
196,Ambilobe,MG,-13.2,49.05,73.51,93,17,2.57,few clouds
197,Marawi,PH,7.9986,124.2928,73.99,93,100,8.01,overcast clouds
198,Tepetzintla,MX,21.1667,-97.8333,69.8,95,100,5.32,overcast clouds
199,Richards Bay,ZA,-28.783,32.0377,77.52,89,95,8.01,light rain
200,Bar Bigha,IN,25.2167,85.7333,45.05,69,0,5.44,clear sky
201,Pevek,RU,69.7008,170.3133,-27.31,85,75,2.33,broken clouds
202,Girvan,GB,55.2426,-4.8555,33.8,69,20,5.75,few clouds
203,Nuuk,GL,64.1835,-51.7216,14.0,85,20,8.05,few clouds
204,Northam,GB,51.0333,-4.2167,39.99,93,100,3.0,overcast clouds
205,Kanye,BW,-24.9667,25.3327,66.29,87,100,4.52,light rain
206,Koboko,UG,3.4136,30.9599,68.05,37,53,1.45,broken clouds
207,Leshukonskoye,RU,64.8989,45.7622,15.87,97,100,5.97,overcast clouds
208,Nikolayevka,RU,53.1257,47.2041,22.26,95,100,12.17,overcast clouds
209,Walvis Bay,NA,-22.9575,14.5053,68.0,77,3,6.91,clear sky
210,Alofi,NU,-19.0595,-169.9187,82.4,78,75,11.5,light rain
211,Kavieng,PG,-2.5744,150.7967,84.02,80,100,14.29,light rain
212,Kaitangata,NZ,-46.2817,169.8464,66.99,71,85,4.0,overcast clouds
213,Mahibadhoo,MV,3.7833,72.9667,81.79,77,75,14.16,broken clouds
214,Ribeira Grande,PT,38.5167,-28.7,64.4,82,75,17.27,broken clouds
215,Ulaangom,MN,49.9811,92.0667,-10.73,88,37,1.68,scattered clouds
216,Tonekabon,IR,36.8163,50.8738,48.2,76,75,1.16,broken clouds
217,Tasiilaq,GL,65.6145,-37.6368,14.0,67,75,3.53,broken clouds
218,Guasdualito,VE,7.2424,-70.7324,81.81,60,100,0.22,overcast clouds
219,Faya,SA,18.3851,42.4509,57.2,43,0,2.73,clear sky
220,Mahanoro,MG,-19.9,48.8,77.04,85,1,3.47,clear sky
221,Riyadh,SA,24.6877,46.7219,57.2,35,0,3.44,clear sky
222,Cayenne,GF,4.9333,-52.3333,80.6,78,90,6.91,overcast clouds
223,Popondetta,PG,-8.7537,148.2534,77.74,88,100,1.74,overcast clouds
224,Provideniya,RU,64.3833,-173.3,3.2,85,90,33.55,snow
225,Abu Samrah,SY,35.3029,37.1841,45.46,92,1,7.63,clear sky
226,Fairbanks,US,64.8378,-147.7164,-2.2,84,90,0.83,overcast clouds
227,Maniitsoq,GL,65.4167,-52.9,12.9,74,13,3.31,few clouds
228,Quixeramobim,BR,-5.1992,-39.2928,80.26,56,85,4.65,overcast clouds
229,Constitucion,CL,-35.3333,-72.4167,61.93,77,10,11.1,clear sky
230,Pisco,PE,-13.7,-76.2167,73.4,64,40,19.57,scattered clouds
231,Sorland,NO,67.667,12.6934,34.34,82,100,19.8,overcast clouds
232,Mega,ET,4.05,38.3,61.5,40,73,18.88,broken clouds
233,Kamenka,RU,51.3223,42.7678,20.97,97,42,8.05,scattered clouds
234,Sulangan,PH,11.1373,123.7228,79.45,79,100,18.97,overcast clouds
235,Norman Wells,CA,65.282,-126.8329,-18.4,69,75,6.91,broken clouds
236,Bandarbeyla,SO,9.4942,50.8122,72.39,72,11,18.12,few clouds
237,Pangnirtung,CA,66.1451,-65.7125,-5.8,84,75,3.53,light snow
238,Kayerkan,RU,69.3497,87.7602,-17.88,80,100,8.1,overcast clouds
239,Beziers,FR,43.3476,3.219,54.0,82,0,8.05,moderate rain
240,Komsomolskiy,UZ,40.4272,71.7189,39.2,56,100,6.91,mist
241,Ler,SS,8.3018,30.1418,79.38,18,0,6.87,clear sky
242,Lata,PT,40.1629,-8.3327,57.99,93,83,8.14,broken clouds
243,Rorvik,NO,64.8621,11.2373,29.57,93,20,8.25,few clouds
244,Colares,PT,38.7992,-9.4469,60.01,98,61,15.01,broken clouds
245,Kasongo-Lunda,CD,-6.4667,16.8167,70.43,86,7,1.3,clear sky
246,Vardo,NO,70.3705,31.1107,21.2,86,75,9.22,broken clouds
247,Wuwei,CN,37.9281,102.6414,21.4,67,0,3.96,clear sky
248,Airai,TL,-8.9266,125.4092,61.7,100,100,5.08,overcast clouds
249,Clyde River,CA,70.4692,-68.5914,-5.8,71,90,6.91,overcast clouds
250,Te Anau,NZ,-45.4167,167.7167,67.33,56,84,0.87,broken clouds
251,Ampanihy,MG,-24.7,44.75,78.55,78,96,0.6,overcast clouds
252,Tezu,IN,27.9167,96.1667,55.76,42,2,3.65,clear sky
253,Mecca,SA,21.4267,39.8261,71.19,50,0,1.7,clear sky
254,Pontianak,ID,-0.0333,109.3333,75.2,94,40,1.79,mist
255,Tucumcari,US,35.1717,-103.725,53.6,28,1,3.44,clear sky
256,Ketchikan,US,55.3422,-131.6461,37.4,81,90,2.71,overcast clouds
257,Les Cayes,HT,18.2,-73.75,75.54,76,11,4.25,few clouds
258,Itaporanga,BR,-7.3044,-38.1503,81.55,46,95,3.27,overcast clouds
259,Sukumo,JP,32.9333,132.7333,46.69,73,12,4.18,few clouds
260,Marfino,RU,55.7028,37.3822,25.0,80,75,13.42,light snow
261,Itatiba,BR,-23.0058,-46.8389,84.2,54,20,8.05,light rain
262,Torbay,CA,47.6666,-52.7314,32.0,93,90,19.57,light snow
263,Muros,ES,42.7762,-9.0603,59.0,87,91,20.0,overcast clouds
264,Olafsvik,IS,64.8945,-23.7142,31.23,96,100,13.49,snow
265,Uusikaupunki,FI,60.8004,21.4084,12.2,85,90,2.3,light snow
266,Ulagan,RU,50.6321,87.9563,4.77,75,38,1.68,scattered clouds
267,Linhares,BR,-19.3911,-40.0722,73.89,90,31,4.79,scattered clouds
268,Mae Ramat,TH,16.984,98.5166,66.63,77,56,1.32,broken clouds
269,Mahebourg,MU,-20.4081,57.7,80.6,78,40,13.8,scattered clouds
270,Warri,NG,5.5167,5.75,79.39,83,29,5.03,scattered clouds
271,Carnarvon,AU,-24.8667,113.6333,80.6,44,100,10.36,overcast clouds
272,Namibe,AO,-15.1961,12.1522,73.74,72,99,5.64,overcast clouds
273,Hamilton,US,39.1834,-84.5333,37.99,93,90,8.05,moderate rain
274,Vestmannaeyjar,IS,63.4427,-20.2734,33.04,87,93,13.87,overcast clouds
275,San Andres,CO,12.5847,-81.7006,84.2,70,40,13.8,scattered clouds
276,Paslek,PL,54.0616,19.6593,28.0,82,70,7.0,light snow
277,Lakatoro,VU,-16.0999,167.4164,83.79,63,94,4.54,overcast clouds
278,Jamestown,US,42.097,-79.2353,30.0,74,90,11.5,overcast clouds
279,Paracuru,BR,-3.41,-39.0306,82.0,77,26,18.01,scattered clouds
280,Salalah,OM,17.0151,54.0924,68.0,68,0,3.44,clear sky
281,Akonolinga,CM,3.7667,12.25,72.07,83,14,4.16,few clouds
282,Morondava,MG,-20.2833,44.2833,80.82,75,49,4.36,light rain
283,Plettenberg Bay,ZA,-34.0527,23.3716,66.22,84,80,16.35,light rain
284,Nyurba,RU,63.2842,118.3319,-45.89,77,74,4.0,broken clouds
285,Lagos,NG,6.5833,3.75,79.99,84,0,5.75,clear sky
286,Wylie,US,33.0151,-96.5389,55.99,41,1,14.97,clear sky
287,Labuhan,ID,-6.8844,112.2051,77.61,85,100,9.1,overcast clouds
288,Bangolo,CI,7.0069,-7.475,73.09,78,0,2.44,light rain
289,Newburn,GB,54.9876,-1.7442,39.0,86,20,2.3,few clouds
290,Andilamena,MG,-17.0167,48.5833,67.17,94,50,3.0,scattered clouds
291,Caravelas,BR,-17.7125,-39.2481,76.14,86,60,6.11,broken clouds
292,Ballina,AU,-28.8667,153.5667,78.8,61,75,12.66,broken clouds
293,Mount Gambier,AU,-37.8333,140.7667,57.2,88,100,3.44,overcast clouds
294,Pietarsaari,FI,63.65,22.6833,21.99,93,20,3.44,light snow
295,Tiznit,MA,29.5833,-9.5,63.21,58,0,1.9,clear sky
296,Orthez,FR,43.4884,-0.7724,57.0,82,75,26.46,light rain
297,Porto Walter,BR,-8.2686,-72.7439,76.05,88,100,2.89,overcast clouds
298,Bud,US,39.447,-86.1758,33.01,98,100,11.43,snow
299,Chokurdakh,RU,70.6333,147.9167,-23.49,86,95,12.37,overcast clouds
300,Chongwe,ZM,-15.3292,28.682,68.0,94,75,1.14,light rain
301,Warrnambool,AU,-38.3833,142.4833,57.0,93,100,4.5,overcast clouds
302,Puro,PH,12.4841,123.3827,76.78,81,93,14.36,overcast clouds
303,Pangai,TO,-19.8,-174.35,80.6,94,90,6.91,moderate rain
304,Coquimbo,CL,-29.9533,-71.3436,69.8,78,40,11.5,scattered clouds
305,Yoichi,JP,43.2039,140.7703,17.01,79,40,9.22,scattered clouds
306,Codrington,AU,-38.2667,141.9667,62.06,65,100,6.33,overcast clouds
307,Anadyr,RU,64.75,177.4833,6.8,85,90,51.45,snow
308,Passo De Camaragibe,BR,-9.2368,-35.4901,77.0,88,20,5.75,few clouds
309,Totness,SR,5.8833,-56.3167,77.02,79,31,14.5,scattered clouds
310,Lodwar,KE,3.1191,35.5973,78.71,32,82,7.07,broken clouds
311,Wloszczowa,PL,50.8526,19.9659,18.0,1,51,5.95,broken clouds
312,Tamandare,BR,-8.7597,-35.1047,78.12,79,66,7.23,broken clouds
313,Basco,PH,20.4487,121.9702,72.25,73,77,18.21,broken clouds
314,Mendi,PG,-6.1761,143.6513,61.34,94,100,1.19,overcast clouds
315,Mabaruma,GY,8.2,-59.7833,74.66,84,79,5.79,broken clouds
316,Halifax,CA,44.6453,-63.5724,28.99,80,85,8.05,overcast clouds
317,Biak,ID,-0.9131,122.8766,78.31,73,99,3.53,overcast clouds
318,Anchorage,US,61.2181,-149.9003,10.4,78,1,4.5,clear sky
319,Zuwarah,LY,32.9312,12.082,56.86,67,43,13.78,scattered clouds
320,Urussu,RU,54.5981,53.4631,24.58,95,100,20.8,snow
321,Sysert,RU,56.4953,60.8192,6.8,92,1,2.24,mist
322,Bethel,US,41.3712,-73.414,21.99,53,90,5.75,overcast clouds
323,Bilma,NE,18.6853,12.9164,58.51,29,2,2.57,clear sky
324,Okha,RU,53.5739,142.9478,-15.68,81,0,20.4,clear sky
325,Yeppoon,AU,-23.1333,150.7333,78.8,65,90,12.66,overcast clouds
326,Iskateley,RU,67.6803,53.1512,7.34,95,92,9.28,overcast clouds
327,Coueron,FR,47.2151,-1.7217,52.0,93,90,14.97,overcast clouds
328,Jalu,LY,29.0331,21.5482,61.66,29,0,12.93,clear sky
329,Valleyview,CA,55.0667,-117.2859,15.8,73,46,8.05,scattered clouds
330,Cidreira,BR,-30.1811,-50.2056,75.74,87,100,4.25,overcast clouds
331,Ayolas,PY,-27.4,-56.9,75.51,89,81,5.84,broken clouds
332,Maragogi,BR,-9.0122,-35.2225,78.26,78,63,7.27,broken clouds
333,Lagoa,PT,39.05,-27.9833,61.7,87,100,19.1,overcast clouds
334,Anloga,GH,5.7947,0.8973,84.2,84,20,9.22,few clouds
335,Comodoro Rivadavia,AR,-45.8667,-67.5,71.6,43,40,23.02,scattered clouds
336,Muswellbrook,AU,-32.2667,150.9,78.01,60,93,3.0,overcast clouds
337,Ponta Do Sol,PT,32.6667,-17.1,55.99,74,0,3.0,clear sky
338,Hervey Bay,AU,-25.2986,152.8535,80.01,66,2,5.99,clear sky
339,Ilulissat,GL,69.2167,-51.1,6.8,56,83,9.22,broken clouds
340,La Paz,BO,-16.5,-68.15,51.8,71,75,9.22,broken clouds
341,Bilibino,RU,68.0546,166.4372,-13.11,82,99,9.28,overcast clouds
342,Ancud,CL,-41.8697,-73.8203,68.0,59,0,8.05,clear sky
343,Los Llanos De Aridane,ES,28.6585,-17.9182,64.4,77,0,8.05,clear sky
344,Neiafu,TO,-18.65,-173.9833,80.6,83,75,14.97,light rain
345,Henties Bay,NA,-22.116,14.2845,68.0,83,75,5.64,broken clouds
346,Maicao,CO,11.3832,-72.2432,80.1,68,70,14.23,broken clouds
347,San Joaquin,US,37.9333,-121.3011,64.4,45,1,8.05,clear sky
348,Slupsk,PL,54.4641,17.0287,26.78,98,93,11.95,light snow
349,Mushie,CD,-3.0167,16.9,73.11,83,34,0.25,scattered clouds
350,Turukhansk,RU,65.8167,87.9833,-11.42,88,100,11.68,overcast clouds
351,Udachnyy,RU,66.4167,112.4,-40.92,79,99,9.15,overcast clouds
352,Vanimo,PG,-2.6741,141.3028,77.07,90,100,9.17,overcast clouds
353,Mount Isa,AU,-20.7333,139.5,87.8,55,100,5.75,overcast clouds
354,Narsaq,GL,60.9167,-46.05,39.2,33,75,18.41,broken clouds
355,Gayeri,BF,12.6497,0.4931,73.76,17,53,9.35,broken clouds
356,Jaboatao,BR,-8.1803,-35.0014,78.8,73,75,8.05,broken clouds
357,Coihaique,CL,-45.5752,-72.0662,78.8,27,20,6.91,few clouds
358,Saint-Pierre,RE,-21.3393,55.4781,80.6,69,20,18.41,few clouds
359,Gat,IL,31.61,34.7642,55.0,87,0,2.3,clear sky
360,Jardim,BR,-21.4803,-56.1381,77.2,89,59,3.8,broken clouds
361,Nemea,GR,37.8167,22.6667,50.76,88,88,7.09,overcast clouds
362,Umea,SE,63.8284,20.2597,1.4,92,90,3.44,light snow
363,Hailin,CN,44.5833,129.4167,7.88,95,100,1.52,overcast clouds
364,Oranjestad,AW,12.524,-70.027,80.6,78,20,20.71,few clouds
365,Puri,IN,19.8,85.85,62.6,94,57,7.38,mist
366,Caconda,AO,-13.7333,15.0667,58.82,88,100,5.53,overcast clouds
367,Dingle,PH,10.9995,122.6711,73.29,90,90,8.9,overcast clouds
368,Valparaiso,CL,-33.0393,-71.6273,69.8,68,0,10.36,clear sky
369,Belawan,ID,3.7755,98.6832,75.2,100,40,2.3,mist
370,Rawson,AR,-43.3002,-65.1023,74.17,34,26,25.88,scattered clouds
371,Kodiak,US,57.79,-152.4072,30.2,59,1,9.22,clear sky
372,Puerto Madryn,AR,-42.7692,-65.0385,72.61,39,2,25.88,clear sky
373,Kushima,JP,31.4583,131.2333,42.8,81,40,8.05,scattered clouds
374,Chabahar,IR,25.2919,60.643,69.58,77,0,8.7,clear sky
375,Pacific Grove,US,36.6177,-121.9166,59.0,67,1,4.61,clear sky
376,Arlit,NE,18.7369,7.3853,66.96,20,20,8.46,few clouds
377,Ulaanbaatar,MN,47.9077,106.8832,-25.6,68,0,2.24,clear sky
378,Campbell River,CA,50.0163,-125.2446,46.4,81,75,5.75,broken clouds
379,Prince Rupert,CA,54.3161,-130.3201,42.8,65,75,10.36,light rain
380,Upata,VE,8.0086,-62.3989,74.25,76,82,6.87,broken clouds
381,Kailua,US,21.4022,-157.7394,80.6,61,75,14.97,broken clouds
382,Marsaxlokk,MT,35.8419,14.5431,57.0,76,20,21.85,few clouds
383,Deniliquin,AU,-35.5333,144.9667,66.0,78,76,3.18,broken clouds
384,Ojinaga,MX,29.5667,-104.4167,71.6,11,1,13.27,clear sky
385,Bad Aussee,AT,47.61,13.7824,32.0,100,62,2.98,broken clouds
386,Loukhi,RU,66.0764,33.0381,8.31,96,100,2.66,overcast clouds
387,Whitianga,NZ,-36.8333,175.7,67.77,60,10,9.98,clear sky
388,Jamame,SO,0.0722,42.7506,72.93,83,42,9.28,scattered clouds
389,Verkhnyaya Maksakovka,RU,61.635,50.9674,30.2,100,90,15.66,snow
390,Celestun,MX,20.8667,-90.4,74.97,72,0,13.2,clear sky
391,Port Blair,IN,11.6667,92.75,78.39,85,37,10.47,scattered clouds
392,Aklavik,CA,68.2191,-135.0107,-20.2,76,100,5.75,light snow
393,Novobirilyussy,RU,56.9514,90.6661,-21.93,84,60,6.35,broken clouds
394,Cabo San Lucas,MX,22.8909,-109.9124,77.0,64,75,17.27,broken clouds
395,Maumere,ID,-8.6199,122.2111,79.77,82,100,10.13,overcast clouds
396,Geraldton,AU,-28.7667,114.6,80.6,24,0,5.75,clear sky
397,Mana,GF,5.6592,-53.7767,77.58,79,36,13.18,scattered clouds
398,Kimbe,PG,-5.5502,150.1429,83.64,73,88,4.72,overcast clouds
399,Kirakira,SB,-10.4544,161.9205,84.92,71,74,19.64,broken clouds
400,Ano Mera,GR,37.45,25.4,64.0,77,94,10.36,overcast clouds
401,Koumac,NC,-20.5667,164.2833,81.63,64,99,7.7,overcast clouds
402,Nioro,GM,13.35,-15.75,78.17,16,67,5.3,broken clouds
403,Mandapam,IN,9.2833,79.1167,78.42,83,27,18.72,scattered clouds
404,Devils Lake,US,48.1128,-98.8651,23.0,80,90,12.66,overcast clouds
405,Saint-Augustin,CA,51.226,-58.6502,15.19,91,98,12.95,overcast clouds
406,Yar-Sale,RU,66.8333,70.8333,-11.52,90,91,7.56,overcast clouds
407,Burnie,AU,-41.0667,145.9167,62.6,90,83,7.45,broken clouds
408,Ahipara,NZ,-35.1667,173.1667,71.62,51,0,6.11,clear sky
409,Bend,US,44.0582,-121.3153,46.4,61,20,6.91,few clouds
410,Chicama,PE,-7.8447,-79.1469,71.6,78,0,13.8,clear sky
411,Mastic Beach,US,40.7668,-72.8521,24.01,54,90,4.61,overcast clouds
412,Aksu,CN,41.1231,80.2644,18.37,78,0,3.6,clear sky
413,Lethem,GY,3.3803,-59.7968,87.8,66,40,13.8,scattered clouds
414,Axim,GH,4.8699,-2.2405,79.52,86,14,11.45,few clouds
415,Alyangula,AU,-13.8483,136.4192,84.2,79,99,6.91,overcast clouds
416,Savonlinna,FI,61.8699,28.88,19.4,93,90,1.14,light snow
417,Tucuman,AR,-26.8241,-65.2226,69.8,83,90,3.44,overcast clouds
418,Half Moon Bay,US,37.4636,-122.4286,63.0,42,75,4.61,broken clouds
419,Tamiahua,MX,21.2667,-97.45,74.07,86,98,8.55,overcast clouds
420,Razole,IN,16.4833,81.8333,67.75,95,39,3.78,scattered clouds
421,Poum,NC,-20.2333,164.0167,80.15,72,67,15.43,broken clouds
422,San Quintin,MX,30.4833,-115.95,63.91,48,70,4.56,broken clouds
423,Kostomuksha,RU,64.571,30.5767,8.15,96,100,2.77,overcast clouds
424,Aswan,EG,24.0934,32.907,58.1,46,0,6.22,clear sky
425,Xunchang,CN,28.4543,104.715,46.15,80,22,1.79,few clouds
426,Bam,IR,29.106,58.357,51.4,46,0,2.77,clear sky
427,San Ramon,US,37.7799,-121.978,66.0,36,1,5.75,clear sky
428,Skibbereen,IE,51.55,-9.2667,44.6,100,90,11.5,fog
429,Takoradi,GH,4.8845,-1.7554,79.36,87,30,11.45,scattered clouds
430,Tomatlan,MX,19.9333,-105.25,82.78,52,0,6.02,clear sky
431,Padang,ID,-0.9492,100.3543,77.13,73,69,5.01,broken clouds
432,Bambanglipuro,ID,-7.95,110.2833,76.12,87,97,4.09,overcast clouds
433,Aberystwyth,GB,52.4155,-4.0829,34.0,100,100,14.92,overcast clouds
434,Kibala,TD,9.1104,18.3463,73.4,43,0,4.07,clear sky
435,Vila Velha,BR,-20.3297,-40.2925,80.6,74,40,14.97,scattered clouds
436,Severnoye,RU,56.3491,78.3619,-7.24,84,74,5.41,broken clouds
437,Carutapera,BR,-1.195,-46.02,79.18,82,7,8.55,light rain
438,Santo Domingo,DO,18.5001,-69.9886,79.0,78,75,11.5,broken clouds
439,Bathsheba,BB,13.2167,-59.5167,78.8,69,40,20.71,scattered clouds
440,Tarauaca,BR,-8.1614,-70.7656,71.94,97,100,0.6,overcast clouds
441,Huarmey,PE,-10.0681,-78.1522,73.89,70,17,12.17,few clouds
442,Gorom-Gorom,BF,14.4439,-0.2361,72.79,18,85,7.02,overcast clouds
443,Tete,MZ,-16.1564,33.5867,78.8,100,75,3.44,light rain
444,Nha Trang,VN,12.25,109.1833,71.6,78,20,3.44,few clouds
445,Elizabeth City,US,36.2946,-76.2511,51.8,87,90,10.36,moderate rain
446,Kisanga,TZ,-7.4362,37.7034,74.1,83,100,6.15,overcast clouds
447,Oxapampa,PE,-10.5775,-75.4017,63.34,91,51,0.83,broken clouds
448,Estacion Coahuila,MX,32.1939,-115.0017,69.8,27,75,6.91,broken clouds
449,Terra Boa,BR,-23.7681,-52.4442,69.8,100,75,8.05,light rain
450,Bairiki,KI,1.3292,172.9752,82.4,78,20,8.05,few clouds
451,Mayskiy,RU,47.6931,40.1025,37.4,100,90,2.24,fog
452,Xiamen,CN,24.4798,118.0819,55.4,94,20,2.24,mist
453,Beyneu,KZ,45.3167,55.2,35.64,90,0,5.21,clear sky
454,Mongoumba,CF,3.6415,18.5936,76.33,59,24,3.29,few clouds
455,Saskylakh,RU,71.9167,114.0833,-31.09,84,67,7.49,broken clouds
456,Homer,US,59.6425,-151.5483,24.8,63,1,8.05,clear sky
457,Nalut,LY,30.3333,10.85,49.89,53,17,10.02,few clouds
458,Adrar,MR,20.5022,-10.0711,67.73,22,29,9.26,scattered clouds
459,San Policarpo,PH,12.1791,125.5072,79.38,81,95,15.28,overcast clouds
460,Iberia,US,29.9502,-91.7507,62.6,55,1,19.57,clear sky
461,Sagua La Grande,CU,22.8067,-80.0756,78.8,65,40,12.66,light rain
462,Victoria Falls,ZW,-17.9235,25.843,70.39,85,100,2.48,overcast clouds
463,Tulum,MX,20.2167,-87.4667,80.6,74,75,9.22,broken clouds
464,Gamboma,CG,-1.8764,15.8644,73.38,84,49,2.26,light rain
465,Pareora,NZ,-44.4871,171.2132,70.0,37,90,7.0,overcast clouds
466,Lexington Park,US,38.2668,-76.4538,35.01,86,90,16.11,moderate rain
467,Lannion,FR,48.75,-3.4167,50.0,100,90,16.11,overcast clouds
468,Buin,CL,-33.7333,-70.75,75.2,50,75,11.5,broken clouds
469,Prince George,CA,53.9166,-122.753,30.99,100,90,2.3,light snow
470,Puerto Escondido,MX,15.85,-97.0667,84.2,70,1,5.75,clear sky
471,Tagab,AF,34.855,69.6492,30.2,74,0,2.3,smoke
472,Longyearbyen,SJ,78.2186,15.6401,3.2,33,0,14.97,clear sky
473,Guaymas,MX,27.9333,-110.9,82.0,46,40,11.5,scattered clouds
474,Channel-Port Aux Basques,CA,47.5702,-59.1367,28.9,93,81,11.77,broken clouds
475,Hami,CN,42.8,93.45,24.89,78,0,7.47,clear sky
476,Saint-Joseph,RE,-21.3667,55.6167,80.6,69,20,18.41,few clouds
477,Igurubi,TZ,-4.0,33.7,66.96,86,100,3.27,overcast clouds
478,Wilmington,US,34.2257,-77.9447,59.0,88,90,16.11,mist
479,Kamina,CD,-8.7386,24.9906,65.98,95,100,3.83,overcast clouds
480,Mackay,AU,-21.15,149.2,80.6,74,40,10.36,scattered clouds
481,Oistins,BB,13.0667,-59.5333,78.8,69,40,20.71,scattered clouds
482,Yakima,US,46.4665,-120.6678,46.0,76,40,3.44,scattered clouds
483,Calvia,ES,39.5657,2.5062,60.01,77,0,8.05,clear sky
484,Umm Lajj,SA,25.0213,37.2685,69.55,44,0,9.6,clear sky
485,Kharp,RU,66.8014,65.8081,-19.01,86,86,2.66,overcast clouds
486,Preobrazheniye,RU,42.9019,133.9064,29.95,98,100,0.89,light rain
487,Tibiri,NE,13.5627,7.0485,70.66,20,0,9.24,clear sky
488,Awbari,LY,26.5921,12.7805,59.58,29,21,10.49,few clouds
489,Varna,BG,43.2167,27.9167,50.0,76,0,8.05,clear sky
490,Gornyak,RU,50.9942,81.4661,6.01,89,100,1.5,overcast clouds
491,El Alto,PE,-4.2714,-81.2147,82.4,61,40,17.27,scattered clouds
492,Abha,SA,18.2164,42.5053,57.2,43,0,2.82,clear sky
493,Vrede,ZA,-27.4257,29.1659,61.39,95,99,2.24,light rain
494,Doume,CM,4.2333,13.45,71.49,58,0,3.02,clear sky
495,Ahuimanu,US,21.4447,-157.8378,80.6,61,75,14.97,broken clouds
496,Liepaja,LV,56.5419,21.0367,28.4,93,90,2.3,overcast clouds
497,Abbeville,FR,50.1,1.8333,43.0,46,100,4.94,overcast clouds
498,Chateaudun,FR,48.0833,1.3333,50.0,93,100,6.91,overcast clouds
499,Sagar,IN,23.8333,78.7167,51.01,42,0,4.59,clear sky
500,Oeiras Do Para,BR,-2.0031,-49.8544,78.04,86,40,4.76,scattered clouds
501,Severnyy,RU,50.677,36.5532,26.6,74,0,6.71,light snow
502,Kapuskasing,CA,49.4169,-82.4331,8.6,66,74,2.3,broken clouds
503,Charters Towers,AU,-20.1,146.2667,78.3,62,69,8.43,broken clouds
504,Yumaguzino,RU,52.9041,56.3933,18.9,94,59,8.63,broken clouds
505,Saint Anthony,US,45.0205,-93.218,34.0,69,90,9.22,overcast clouds
506,Westport,US,41.1415,-73.3579,24.8,46,90,6.91,overcast clouds
507,Miyako,JP,39.6367,141.9525,28.24,88,52,4.43,broken clouds
508,Bereznik,RU,62.8551,42.7072,15.98,97,98,4.47,light snow
509,Kalemie,CD,-5.9475,29.1947,70.07,86,100,6.67,light rain
510,Pimentel,PE,-6.8367,-79.9342,77.0,61,0,25.32,clear sky
511,Kyaukse,MM,21.6,96.1333,60.15,51,4,2.66,clear sky
512,Deputatskiy,RU,69.3,139.9,-28.37,87,97,1.66,overcast clouds
513,Mangai,CD,-4.05,19.5333,70.5,93,100,0.63,overcast clouds
514,Zhangye,CN,38.9342,100.4517,18.9,68,0,2.68,clear sky
515,Mount Pleasant,US,32.7941,-79.8626,61.0,88,90,11.5,light rain
516,Mikkeli,FI,61.6886,27.2723,18.0,86,90,4.61,light snow
517,Uige,AO,-7.6087,15.0613,68.13,95,87,1.79,moderate rain
518,Taksimo,RU,56.3444,114.8794,-25.91,77,100,3.2,overcast clouds
519,Iwanai,JP,42.9744,140.5089,20.98,93,93,9.13,overcast clouds
520,Berlevag,NO,70.8578,29.0864,26.6,86,90,13.8,light snow
521,Inhambane,MZ,-23.865,35.3833,79.99,85,3,8.57,clear sky
522,Iquique,CL,-20.2208,-70.1431,73.4,60,0,20.71,clear sky
523,Vila Franca Do Campo,PT,37.7167,-25.4333,62.01,88,75,17.27,broken clouds
524,Pirapora Do Bom Jesus,BR,-23.3969,-47.0022,84.2,48,0,3.44,clear sky
525,Wagar,SD,16.1525,36.2032,64.94,91,0,8.81,clear sky
526,Nome,US,64.5011,-165.4064,1.0,60,1,4.61,clear sky
527,Ati,TD,13.2154,18.3353,74.68,19,0,10.33,clear sky
528,Taltal,CL,-25.4,-70.4833,70.43,69,22,5.97,few clouds
529,Lompoc,US,34.6391,-120.4579,64.4,32,1,3.44,clear sky
530,Monduli,TZ,-3.3,36.45,60.33,79,97,8.39,overcast clouds
531,Havoysund,NO,70.9963,24.6622,28.4,93,75,14.97,light snow
532,San Clemente,US,33.427,-117.612,69.01,53,97,1.01,overcast clouds
533,Krompachy,SK,48.9145,20.8751,24.01,68,0,10.36,clear sky
534,Soledade,BR,-28.8183,-52.5103,64.67,100,100,2.62,overcast clouds
535,Groton,US,41.3501,-72.0784,23.0,53,90,5.79,overcast clouds
536,Muscatine,US,41.4667,-91.1335,32.0,93,90,16.11,light rain
537,Inongo,CD,-1.95,18.2667,74.28,86,16,4.09,few clouds
538,Baghdad,IQ,33.3406,44.4009,53.6,54,0,6.91,clear sky
539,Sorong,ID,-0.8833,131.25,80.89,79,100,7.23,overcast clouds
540,Broome,US,42.2506,-75.833,26.01,63,90,6.91,light snow
541,Barsovo,RU,61.1667,73.1667,6.8,92,75,5.32,light snow
542,Acari,PE,-15.4311,-74.6158,76.41,56,14,6.51,few clouds
543,Teguldet,RU,57.3064,88.1667,-17.99,85,68,7.16,broken clouds
544,Arrecife,ES,28.963,-13.5477,64.4,82,20,25.32,few clouds
545,Verkhovazhye,RU,60.7472,42.0465,18.66,97,100,6.02,light snow
546,Lasa,IT,46.6166,10.7002,36.0,93,0,3.44,clear sky
547,Rabo De Peixe,PT,37.8,-25.5833,62.01,88,75,17.27,broken clouds
548,Muli,MV,2.9167,73.5667,81.43,80,56,15.08,light rain
549,Maple Creek,CA,49.9168,-109.4848,44.6,42,17,2.3,few clouds
550,Chalchihuites,MX,23.4833,-103.8833,73.24,20,0,5.03,clear sky
551,Promissao,BR,-21.5367,-49.8581,71.47,90,100,7.7,overcast clouds
552,Saryozek,KZ,44.3583,77.9753,29.64,70,96,3.67,overcast clouds
553,Grand-Bourg,GP,15.8835,-61.3148,78.8,83,20,9.22,few clouds
554,Nautla,MX,20.2167,-96.7833,75.07,84,86,12.48,overcast clouds
555,Fenoarivo Atsinanana,MG,-17.3667,49.4167,78.33,81,35,3.2,scattered clouds
556,Karratha,AU,-20.7377,116.8463,84.7,57,99,18.23,overcast clouds
557,Strezhevoy,RU,60.7333,77.5889,-2.2,78,90,4.47,light snow
558,Santa Barbara,US,34.7333,-120.0343,66.0,36,1,3.44,clear sky
559,Sovetskaya Gavan,RU,48.9723,140.2878,-7.51,81,52,2.75,broken clouds
560,Sola,VU,-13.8833,167.55,84.2,84,75,2.77,broken clouds
561,Morro Bay,US,35.3658,-120.8499,62.01,75,100,3.0,overcast clouds
562,Vaslui,RO,46.6333,27.7333,32.0,93,75,5.75,light snow
563,Margate,GB,51.3813,1.3862,39.99,90,100,1.99,overcast clouds
564,Mareeba,AU,-17.0,145.4333,80.01,79,79,1.99,broken clouds
565,Bom Jesus,BR,-9.0744,-44.3586,77.5,65,25,6.69,scattered clouds
566,Nyrob,RU,60.733,56.7202,27.43,97,100,14.99,overcast clouds
567,Talcahuano,CL,-36.7167,-73.1167,71.6,56,0,10.36,clear sky
568,Jega,NG,12.2175,4.3792,75.33,17,0,8.99,clear sky
569,Soller,ES,39.7662,2.7152,60.01,77,0,8.05,clear sky
570,Perbaungan,ID,3.5679,98.956,75.2,100,40,2.3,mist
571,Tuatapere,NZ,-46.1333,167.6833,69.06,53,6,1.95,clear sky
572,Hrebinka,UA,50.1171,32.4361,21.36,96,100,2.3,overcast clouds
573,Taoudenni,ML,22.6783,-3.9836,70.21,21,0,8.16,clear sky
574,Bubaque,GW,11.2833,-15.8333,78.66,72,68,10.04,broken clouds
575,Bontang,ID,0.1333,117.5,76.39,86,94,4.05,overcast clouds
576,Fukue,JP,32.6881,128.8419,60.46,76,99,26.6,overcast clouds
577,Boueni,YT,-12.9025,45.0761,82.4,78,75,4.61,broken clouds
578,Alta Floresta,BR,-9.8756,-56.0861,74.14,92,87,1.77,overcast clouds
579,Junagarh,IN,19.8667,82.9333,54.37,38,0,0.49,clear sky
580,Acapulco,MX,16.8634,-99.8901,84.2,74,20,9.22,few clouds
581,Whitehorse,CA,60.7161,-135.0538,-0.99,77,90,3.44,light snow
582,Mitha Tiwana,PK,32.2486,72.1108,51.48,42,0,2.8,clear sky
583,Chapais,CA,49.7834,-74.8492,-0.4,78,1,3.44,clear sky
584,Dunedin,NZ,-45.8742,170.5036,62.62,66,100,5.59,overcast clouds
585,Nemuro,JP,43.3236,145.575,18.64,90,0,7.45,clear sky
586,Tshela,CD,-4.9833,12.9333,72.93,95,97,1.12,overcast clouds
587,Surgut,RU,61.25,73.4167,6.8,92,75,5.17,light snow
588,Pecos,US,31.4229,-103.4932,62.6,25,1,4.61,clear sky
589,Naze,JP,28.3667,129.4833,62.6,63,20,14.97,few clouds
590,Bardiyah,LY,31.7561,25.0865,62.92,47,0,14.0,clear sky
591,Mehamn,NO,71.0357,27.8492,27.84,95,100,11.9,light snow
592,Sambava,MG,-14.2667,50.1667,76.21,84,19,7.36,few clouds
593,Pedernales,DO,18.0384,-71.744,79.12,67,34,10.07,scattered clouds
594,Eureka,US,40.8021,-124.1637,55.99,84,100,8.99,light rain
595,Catia La Mar,VE,10.6038,-67.0303,78.8,83,75,12.46,broken clouds
596,San Jose,US,37.3394,-121.895,66.0,32,75,3.44,broken clouds
597,Omboue,GA,-1.5746,9.2618,77.59,86,100,2.53,overcast clouds
598,Talant,FR,47.3369,5.0089,46.4,93,75,10.36,broken clouds
599,Jiuquan,CN,39.7432,98.5174,18.3,71,0,0.6,clear sky
600,Katiola,CI,8.1333,-5.1,86.0,37,18,2.3,few clouds
601,Thatcham,GB,51.4037,-1.2605,37.99,96,100,1.99,overcast clouds
602,Port Macquarie,AU,-31.4333,152.9167,75.99,75,77,1.01,broken clouds
603,Biloela,AU,-24.4167,150.5,80.62,52,0,14.45,clear sky
604,Itaituba,BR,-4.2761,-55.9836,80.6,94,20,5.75,few clouds
605,Namatanai,PG,-3.6667,152.4333,84.43,69,100,5.97,overcast clouds
606,Mayo,US,38.8876,-76.5119,32.0,100,90,10.36,mist
607,Fernie,CA,49.5,-115.0687,37.4,80,100,6.91,light snow
608,Puerto Colombia,CO,10.9878,-74.9547,82.4,69,0,14.97,clear sky
609,Chake Chake,TZ,-5.2459,39.7666,77.29,79,100,8.41,overcast clouds
610,Kargala,RU,56.6208,83.9607,-11.0,80,43,4.65,scattered clouds
611,Dhekiajuli,IN,26.7,92.5,54.93,62,0,3.58,clear sky
612,Malakal,SS,9.5334,31.6605,77.58,21,0,8.19,clear sky
613,Artigas,UY,-30.4,-56.4667,76.98,80,58,5.7,broken clouds
614,Solok,ID,-0.7918,100.6593,69.37,88,83,2.3,broken clouds
615,General Pico,AR,-35.6566,-63.7568,71.24,29,100,1.68,light rain
616,Lodja,CD,-3.4833,23.4333,70.36,88,90,1.68,overcast clouds
617,Goure,NE,13.9835,10.2704,72.0,16,0,8.01,clear sky
618,Portland,US,45.5234,-122.6762,54.0,81,90,11.5,overcast clouds
619,Svay Rieng,KH,11.0879,105.7993,72.73,85,32,2.59,scattered clouds
620,Yumen,CN,40.2833,97.2,18.19,67,0,1.16,clear sky
621,Qasigiannguit,GL,68.8193,-51.1922,6.8,56,65,9.22,broken clouds
622,Puerto Carreno,CO,6.189,-67.4859,87.71,50,100,11.32,overcast clouds
623,Balakhninskiy,RU,58.0106,114.2769,-33.72,77,100,1.81,overcast clouds
624,Shihezi,CN,44.3,86.0333,-1.21,90,58,2.06,broken clouds
625,Linqing,CN,36.8456,115.7117,40.98,54,97,6.87,overcast clouds
626,Havre-Saint-Pierre,CA,50.2334,-63.5986,21.2,58,1,8.05,clear sky
627,Baherden,TM,38.4362,57.4316,48.56,52,9,4.63,clear sky
628,Kirovskiy,RU,45.0917,133.5136,8.62,95,100,2.62,snow
629,Visby,SE,57.6409,18.296,28.99,80,90,6.91,overcast clouds
630,Gobabis,NA,-22.45,18.9667,69.91,74,68,6.46,broken clouds
631,Shakawe,BW,-18.3667,21.85,68.94,94,99,2.53,moderate rain
632,Spring Valley,US,36.108,-115.245,60.01,28,75,9.22,broken clouds
633,Diamantina,BR,-18.2494,-43.6003,64.31,85,98,4.0,overcast clouds
634,Rocha,UY,-34.4833,-54.3333,66.72,75,79,7.78,broken clouds
635,Sept-Iles,CA,50.2001,-66.3821,26.6,59,59,8.05,broken clouds
636,Rimouski,CA,48.4488,-68.524,15.8,79,37,12.66,scattered clouds
637,Shimoda,JP,34.6667,138.95,39.0,68,21,1.01,few clouds
638,Coihueco,CL,-36.6167,-71.8333,64.4,94,75,10.36,moderate rain
639,Veenendaal,NL,52.0167,5.55,34.0,88,100,3.0,overcast clouds
640,Verkhoshizhemye,RU,58.011,49.1038,31.12,97,100,20.11,overcast clouds
641,Pithoro,PK,25.5167,69.3833,59.02,86,0,6.82,clear sky
642,Mazamari,PE,-11.3258,-74.5308,75.02,81,79,1.57,broken clouds
643,Atherton,GB,53.5237,-2.4935,37.0,65,97,4.0,overcast clouds
644,Ljungby,SE,56.8332,13.9408,17.01,100,90,2.3,overcast clouds
645,Veraval,IN,20.9,70.3667,67.64,41,0,10.18,clear sky
646,Isangel,VU,-19.55,169.2667,78.8,94,90,5.75,overcast clouds
647,Leh,IN,34.1667,77.5833,7.48,64,98,1.63,overcast clouds
648,Bermeo,ES,43.4209,-2.7215,59.0,67,20,16.11,few clouds
649,Mogadishu,SO,2.0371,45.3438,75.24,82,10,19.35,clear sky
650,Santiago Del Estero,AR,-27.7951,-64.2615,71.6,77,100,2.39,overcast clouds
651,Maldonado,UY,-34.6667,-54.9167,71.6,73,75,19.57,moderate rain
652,Sistranda,NO,63.7256,8.834,32.0,80,40,17.27,snow
653,Pingliang,CN,35.5392,106.6861,28.9,71,12,2.57,few clouds
654,Kerema,PG,-7.9631,145.7785,77.16,84,100,8.43,overcast clouds
655,Santa Fe,AR,-31.6333,-60.7,68.0,90,92,1.99,light rain
656,Kuching,MY,1.55,110.3333,75.2,94,40,0.78,heavy intensity rain
657,Loandjili,CG,-4.7561,11.8578,79.03,84,61,4.56,broken clouds
658,Corinto,GR,37.9407,22.9573,62.01,88,20,5.75,few clouds
659,Lashma,RU,54.9321,41.1438,22.39,96,100,12.37,overcast clouds
660,Marzuq,YE,14.4,46.4667,58.59,52,0,2.55,clear sky
661,U Thong,TH,14.3751,99.8923,75.0,57,4,3.04,clear sky
662,Qingdao,CN,36.0986,120.3719,42.01,80,42,2.24,mist
663,Kenai,US,60.5544,-151.2583,10.4,78,1,3.44,clear sky
664,Las Piedras,UY,-34.7264,-56.22,71.6,64,90,17.27,overcast clouds
665,Singida,TZ,-4.8167,34.75,59.9,84,100,7.31,overcast clouds
666,Alice Springs,AU,-23.7,133.8833,86.0,26,67,11.5,broken clouds
667,Sao Paulo De Olivenca,BR,-3.3783,-68.8725,76.32,95,100,2.39,moderate rain
668,Rapid Valley,US,44.0625,-103.1463,50.0,25,1,11.5,clear sky
669,Kudahuvadhoo,MV,2.6708,72.8944,81.36,79,9,11.3,clear sky
670,Hovd,MN,48.0056,91.6419,1.78,88,35,2.04,scattered clouds
671,Wawa,NG,9.9022,4.4192,79.81,17,60,7.81,broken clouds
672,Tahta,EG,26.7693,31.5021,53.6,58,0,6.91,clear sky
673,Quatre Cocos,MU,-20.2078,57.7625,80.6,78,40,13.8,scattered clouds
674,Bondo,CD,3.8146,23.6866,69.6,41,99,1.14,overcast clouds
675,Price,US,39.5994,-110.8107,35.6,44,1,0.85,clear sky
676,Mariental,NA,-24.6333,17.9667,77.61,18,40,16.98,scattered clouds
677,Samarai,PG,-10.6167,150.6667,84.0,70,5,10.6,clear sky
678,Ipixuna,BR,-1.7625,-48.8043,78.8,83,40,4.61,heavy intensity rain
679,Tsimlyansk,RU,47.6461,42.1019,34.66,95,97,2.3,overcast clouds
680,Susehri,TR,40.1644,38.0867,26.44,92,28,4.09,scattered clouds
681,Villa Bruzual,VE,9.3328,-69.1208,83.12,52,97,1.3,overcast clouds
682,Meulaboh,ID,4.1363,96.1285,74.66,88,67,5.28,broken clouds
683,Miles City,US,46.4083,-105.8406,44.6,49,1,5.75,clear sky
684,Ilhabela,BR,-23.7781,-45.3581,77.59,84,66,3.85,broken clouds
685,Tena,EC,-0.9833,-77.8167,86.0,62,75,4.61,broken clouds
686,Kavaratti,IN,10.5669,72.642,80.92,73,0,10.25,clear sky
687,Shenkursk,RU,62.1091,42.896,18.0,97,100,5.1,light snow
688,Yelizovo,RU,53.1873,158.3805,12.2,62,65,2.24,broken clouds
689,Ocos,GT,14.5094,-92.1933,91.4,58,20,8.05,few clouds
